City_ID,City,Lat,Lng,Max Temp,Humidity,Cloudiness,Wind Speed,Country,Date
0,chapaev,50.2,51.1667,14.72,75,5,3.13,KZ,1722042518
1,quepos,9.4236,-84.1652,25.88,88,99,1.25,CR,1722042519
2,constantia,44.1833,28.65,18.38,81,0,5.28,RO,1722042521
3,vorgashor,67.5833,63.95,8.6,94,100,2.19,RU,1722042522
4,howrah,22.5892,88.3103,29.0,94,75,2.06,IN,1722042523
5,hithadhoo,-0.6,73.0833,28.89,74,71,4.95,MV,1722042524
6,san mariano,7.5,126.0,23.93,92,100,0.74,PH,1722042525
7,tadine,-21.55,167.8833,21.13,63,98,5.09,NC,1722042527
8,puerto natales,-51.7236,-72.4875,0.67,99,93,1.52,CL,1722042528
9,susuman,62.7833,148.1667,13.93,44,5,0.75,RU,1722042529
10,pacific grove,36.6177,-121.9166,22.34,87,75,4.63,US,1722042300
11,rawlins,41.7911,-107.2387,26.94,26,20,2.06,US,1722042531
12,atherton,53.5237,-2.4935,13.19,85,100,1.64,GB,1722042532
13,albany,42.6001,-73.9662,20.87,71,0,3.88,US,1722042357
14,nuuk,64.1835,-51.7216,4.34,93,100,12.35,GL,1722042535
15,oum hadjer,13.2954,19.6966,25.47,82,100,4.93,TD,1722042536
16,taltal,-25.4,-70.4833,16.39,65,3,1.87,CL,1722042537
17,tindouf,27.6711,-8.1474,33.04,13,1,4.23,DZ,1722042538
18,flying fish cove,-10.4217,105.6791,25.82,78,75,5.66,CX,1722042540
19,grytviken,-54.2811,-36.5092,-1.11,83,10,5.55,GS,1722042541
20,errachidia,31.9275,-4.4285,28.77,22,12,3.25,MA,1722042542
21,narayanpet,16.7333,77.5,23.97,87,100,7.3,IN,1722042543
22,antsiranana,-12.2787,49.2917,20.98,85,79,2.98,MG,1722042544
23,hermanus,-34.4187,19.2345,12.01,82,0,6.92,ZA,1722042546
24,uturoa,-16.7333,-151.4333,25.19,70,45,6.15,PF,1722042547
25,hammerfest,70.6634,23.6821,20.25,68,94,3.09,NO,1722042548
26,tiksi,71.6872,128.8694,7.78,73,8,2.53,RU,1722042549
27,sitka,57.0531,-135.33,14.94,72,100,3.09,US,1722042550
28,margaret river,-33.95,115.0667,14.92,60,8,4.85,AU,1722042463
29,eyl,7.9803,49.8164,25.15,77,43,11.03,SO,1722042553
30,papatowai,-46.5619,169.4708,12.92,83,100,1.25,NZ,1722042554
31,atafu village,-8.5421,-172.5159,28.32,66,64,2.57,TK,1722042555
32,pacocha,-17.5833,-71.3333,15.17,85,6,0.74,PE,1722042556
33,adamstown,-25.066,-130.1015,20.42,75,100,6.68,PN,1722042558
34,jiwani,25.05,61.7417,28.15,86,64,1.13,PK,1722042559
35,isabela,6.7085,121.9711,29.86,68,95,2.18,PH,1722042560
36,bredasdorp,-34.5322,20.0403,8.23,90,0,2.59,ZA,1722042561
37,egilsstadir,65.2653,-14.3948,10.8,89,100,1.24,IS,1722042562
38,katsuura,35.1333,140.3,27.97,86,100,3.2,JP,1722042564
39,ilulissat,69.2167,-51.1,5.01,87,100,2.06,GL,1722042565
40,ribeira grande,38.5167,-28.7,22.65,87,11,1.79,PT,1722042566
41,wailua homesteads,22.0669,-159.378,27.44,72,75,7.72,US,1722042567
42,kaiapoi,-43.3783,172.6401,18.79,49,87,1.03,NZ,1722042568
43,edinburgh of the seven seas,-37.0676,-12.3116,11.16,65,100,5.41,SH,1722042569
44,reggane,26.7158,0.1714,34.39,12,0,5.15,DZ,1722042571
45,adre,13.4667,22.2,23.77,79,100,6.52,TD,1722042572
46,port mathurin,-19.6833,63.4167,22.69,77,75,7.91,MU,1722042573
47,waitangi,-43.9535,-176.5597,11.01,91,8,2.68,NZ,1722042574
48,at taj,24.2049,23.2857,28.78,30,5,3.77,LY,1722042575
49,ancud,-41.8697,-73.8203,8.51,80,100,10.05,CL,1722042577
50,humberto de campos,-2.5983,-43.4611,23.22,82,35,1.13,BR,1722042578
51,yellowknife,62.456,-114.3525,24.2,50,88,7.6,CA,1722042579
52,parauapebas,-6.0675,-49.9022,24.52,41,55,0.98,BR,1722042580
53,namibe,-15.1961,12.1522,15.45,90,11,3.55,AO,1722042581
54,hafnarfjordur,64.0671,-21.9377,9.21,92,89,3.49,IS,1722042583
55,bukit mertajam,5.363,100.4667,29.86,85,83,1.51,MY,1722042585
56,blackmans bay,-43.0167,147.3167,10.41,69,100,0.89,AU,1722042586
57,bethel,41.3712,-73.414,23.08,75,0,2.57,US,1722042587
58,calp,38.6447,0.0445,25.23,76,0,1.1,ES,1722042589
59,greymouth,-42.4667,171.2,12.81,84,100,2.34,NZ,1722042590
60,vikhorevka,56.1201,101.1636,24.77,70,99,1.53,RU,1722042591
61,choyr,46.3611,108.3611,18.13,72,35,2.92,MN,1722042592
62,longyearbyen,78.2186,15.6401,9.91,81,75,3.09,SJ,1722042593
63,avarua,-21.2078,-159.775,26.03,78,75,6.17,CK,1722042595
64,georgetown,5.4112,100.3354,29.97,66,20,2.57,MY,1722042596
65,port-aux-francais,-49.35,70.2167,-2.31,75,100,19.32,TF,1722042597
66,nar'yan-mar,67.6713,53.087,8.3,77,100,3.58,RU,1722042598
67,pisco,-13.7,-76.2167,16.03,82,0,0.51,PE,1722042599
68,kars,40.602,43.095,12.25,94,75,3.6,TR,1722042601
69,nova sintra,14.8667,-24.7167,25.62,83,23,4.09,CV,1722042602
70,cockburn town,21.4612,-71.1419,28.65,87,100,9.6,TC,1722042603
71,kodiak,57.79,-152.4072,13.73,88,100,1.54,US,1722042604
72,larkird,35.4894,66.6641,16.84,49,0,0.6,AF,1722042606
73,hawaiian paradise park,19.5933,-154.9731,27.73,69,40,5.66,US,1722042607
74,gisborne,-38.6533,178.0042,14.55,52,0,2.01,NZ,1722042608
75,wad az zaki,14.4619,32.2065,26.07,77,100,7.59,SD,1722042609
76,anadyr,64.75,177.4833,10.28,66,100,6.0,RU,1722042610
77,talnakh,69.4865,88.3972,18.32,78,69,0.66,RU,1722042612
78,iqaluit,63.7506,-68.5145,4.83,80,100,8.49,CA,1722042613
79,daru,-9.0763,143.2092,25.19,83,100,6.12,PG,1722042614
80,shimoda,34.6667,138.95,33.95,74,59,5.38,JP,1722042615
81,island harbour,50.724,-1.2758,14.53,70,35,2.74,GB,1722042616
82,pointe-du-lac,46.2869,-72.6845,19.95,68,0,0.0,CA,1722042618
83,taybad,34.74,60.7756,28.1,32,0,7.03,IR,1722042619
84,isafjordur,66.0755,-23.124,7.16,98,100,0.59,IS,1722042620
85,tura,25.5198,90.2201,27.32,92,100,1.44,IN,1722042621
86,ilhabela,-23.7781,-45.3581,20.42,61,100,1.2,BR,1722042622
87,bryne,58.7354,5.6477,14.76,92,75,3.6,NO,1722042624
88,urdinarrain,-32.6857,-58.8932,13.15,71,100,2.42,AR,1722042625
89,iwanai,42.9744,140.5089,22.91,86,100,1.13,JP,1722042626
90,yemetsk,63.4721,41.7941,10.08,67,78,1.99,RU,1722042627
91,jindabyne,-36.4167,148.6333,10.96,29,3,1.49,AU,1722042339
92,oranjemund,-28.55,16.4333,11.99,82,2,1.72,NA,1722042630
93,quzhou,28.9594,118.8686,26.78,91,100,2.53,CN,1722042631
94,hamilton,39.1834,-84.5333,24.68,55,0,4.63,US,1722042632
95,cabo san lucas,22.8909,-109.9124,35.61,62,1,8.09,MX,1722042480
96,luderitz,-26.6481,15.1594,12.56,70,91,2.22,NA,1722042634
97,aleksandrovsk-sakhalinskiy,50.8975,142.1561,20.36,71,0,6.02,RU,1722042636
98,san patricio,28.017,-97.5169,28.24,75,100,3.39,US,1722042637
99,envira,-7.3,-70.2167,26.62,54,14,0.83,BR,1722042639
100,taunggyi,20.7833,97.0333,20.34,95,100,1.88,MM,1722042640
101,xining,36.6167,101.7667,19.14,55,96,0.6,CN,1722042642
102,guerrero negro,27.9769,-114.0611,21.85,79,17,7.68,MX,1722042643
103,invercargill,-46.4,168.35,11.12,93,92,1.34,NZ,1722042617
104,saint-pierre,-21.3393,55.4781,19.82,49,0,3.6,RE,1722042645
105,afaahiti,-17.75,-149.2833,26.93,71,39,6.22,PF,1722042646
106,punta arenas,-53.15,-70.9167,1.06,80,0,9.77,CL,1722042647
107,katutura,-22.521,17.0557,6.44,12,0,0.45,NA,1722042649
108,vila franca do campo,37.7167,-25.4333,24.23,92,100,4.07,PT,1722042650
109,el nido,11.1858,119.3956,30.64,77,99,1.38,PH,1722042651
110,port alfred,-33.5906,26.891,14.1,80,0,2.88,ZA,1722042652
111,sambava,-14.2667,50.1667,20.27,88,57,2.93,MG,1722042653
112,udachny,66.4167,112.4,16.54,41,100,0.32,RU,1722042655
113,revda,56.801,59.9303,10.51,98,100,5.76,RU,1722042656
114,klyuchi,52.2667,79.1667,24.83,64,100,2.3,RU,1722042657
115,san antonio de pale,-1.4014,5.6325,22.88,87,100,5.19,GQ,1722042658
116,puerto ayora,-0.7393,-90.3518,19.75,93,30,2.68,EC,1722042659
117,beledweyne,4.7358,45.2036,23.77,78,81,7.4,SO,1722042661
118,dombarovskiy,50.7587,59.5386,12.38,83,0,6.71,RU,1722042662
119,ust-nera,64.5667,143.2,17.35,37,100,1.91,RU,1722042663
120,twon-brass,4.3151,6.2418,25.48,85,95,5.8,NG,1722042664
121,banda aceh,5.5577,95.3222,28.6,67,96,4.66,ID,1722042665
122,santander,43.4647,-3.8044,19.14,88,100,1.03,ES,1722042667
123,conduaga,8.862,117.4893,29.82,68,92,1.01,PH,1722042668
124,remire-montjoly,4.9167,-52.2667,24.02,94,0,1.03,GF,1722042669
125,hilo,19.7297,-155.09,27.85,74,40,5.66,US,1722042670
126,qaqortoq,60.7167,-46.0333,3.72,83,100,1.96,GL,1722042672
127,oriximina,-1.7656,-55.8661,27.71,54,21,1.82,BR,1722042673
128,sweetwater,25.7634,-80.3731,30.01,77,40,4.12,US,1722042629
129,chilca,-12.5211,-76.7372,15.93,86,68,2.6,PE,1722042676
130,hami,42.8,93.45,33.45,14,100,2.46,CN,1722042677
131,broken hill,-31.95,141.4333,13.15,36,99,5.94,AU,1722042679
132,el porvenir,13.7617,-87.3458,23.63,74,61,2.56,HN,1722042680
133,fale old settlement,-9.3852,-171.2468,28.06,68,26,2.77,TK,1722042681
134,san miguel,13.4833,-88.1833,25.85,91,75,1.01,SV,1722042682
135,pasni,25.2631,63.471,28.12,88,90,1.26,PK,1722042683
136,idri,27.5,13.2667,31.17,22,7,5.64,LY,1722042685
137,tanah merah,5.8,102.15,25.95,94,100,1.21,MY,1722042686
138,naze,28.3667,129.4833,28.71,78,18,5.61,JP,1722042687
139,selfoss,63.9331,-20.9971,10.37,92,40,2.44,IS,1722042688
140,alice springs,-23.7,133.8833,13.75,72,9,2.57,AU,1722042689
141,jaslo,49.7451,21.4725,18.28,75,100,1.18,PL,1722042691
142,aztec,36.8222,-107.9929,33.67,51,5,5.73,US,1722042692
143,saint croix,17.7397,-64.7388,27.75,85,100,1.79,VI,1722042693
144,uyskoye,54.3775,60.0047,11.21,96,100,6.51,RU,1722042694
145,alotau,-10.3069,150.4462,25.85,66,100,2.99,PG,1722042696
146,bilibino,68.0546,166.4372,8.96,53,86,1.35,RU,1722042697
147,puerto deseado,-47.7503,-65.8938,7.8,54,84,11.92,AR,1722042698
148,aasiaat,68.7098,-52.8699,2.39,95,100,4.91,GL,1722042699
149,yeppoon,-23.1333,150.7333,23.47,72,16,3.37,AU,1722042700
150,zacualtipan,20.65,-98.6,17.45,98,100,0.99,MX,1722042702
151,college,64.8569,-147.8028,15.18,81,100,4.45,US,1722042703
152,argo,37.6333,22.7333,24.32,63,0,1.54,GR,1722042705
153,manokwari,-0.8667,134.0833,28.3,71,25,1.56,ID,1722042706
154,buritis,-15.6178,-46.4233,19.84,44,0,0.94,BR,1722042708
155,lompoc,34.6391,-120.4579,21.62,76,0,5.14,US,1722042475
156,acarau,-2.8856,-40.12,25.25,85,12,7.14,BR,1722042710
157,lebu,-37.6167,-73.65,6.22,75,4,3.59,CL,1722042712
158,cadale,2.7603,46.3222,24.62,87,57,6.41,SO,1722042715
159,gore,-46.1028,168.9436,14.07,71,100,0.9,NZ,1722042716
160,saipan,15.1355,145.701,31.39,74,40,4.63,MP,1722042717
161,nishinoomote,30.7333,131.0,29.43,80,100,5.26,JP,1722042718
162,olonkinbyen,70.9221,-8.7187,4.86,100,100,4.16,SJ,1722042720
163,gordonvale,-17.0936,145.7842,24.97,86,97,2.11,AU,1722042721
164,stanley,54.868,-1.6985,10.95,90,0,1.54,GB,1722042723
165,zhangjiakou,40.81,114.8794,24.88,76,83,0.81,CN,1722042725
166,whitehorse,60.7161,-135.0538,20.73,47,100,7.6,CA,1722042726
167,happy valley-goose bay,53.3168,-60.3315,12.16,59,19,2.65,CA,1722042727
168,kyaikto,17.3,97.0167,25.41,93,100,3.32,MM,1722042728
169,tlalixtac de cabrera,17.0667,-96.65,22.68,68,100,4.12,MX,1722042729
170,piacabucu,-10.4056,-36.4344,22.64,80,2,2.85,BR,1722042731
171,kone,-21.0595,164.8658,23.21,51,88,3.05,NC,1722042732
172,galesong,-5.3166,119.3661,28.01,73,65,1.89,ID,1722042733
173,haiku-pauwela,20.9219,-156.3051,29.01,55,20,10.8,US,1722042734
174,callao,-12.0667,-77.15,17.46,77,100,4.63,PE,1722042735
175,takoradi,4.8845,-1.7554,23.41,93,20,3.28,GH,1722042737
176,carnarvon,-24.8667,113.6333,16.54,54,0,5.69,AU,1722042738
177,iskateley,67.6803,53.1512,8.34,77,100,3.6,RU,1722042739
178,west island,-12.1568,96.8225,25.99,89,75,1.54,CC,1722042740
179,mejit,10.2753,170.8646,27.78,82,100,9.65,MH,1722042741
180,kapuskasing,49.4169,-82.4331,20.81,48,100,4.72,CA,1722042743
181,butte,39.6499,-121.5677,37.99,14,0,4.63,US,1722042744
182,nova vicosa,-17.8919,-39.3719,22.79,78,64,2.68,BR,1722042745
183,karratha,-20.7377,116.8463,18.53,26,0,9.0,AU,1722042746
184,birao,10.2849,22.7882,21.96,96,100,2.41,CF,1722042747
185,port augusta,-32.5,137.7667,13.69,56,27,7.96,AU,1722042749
186,bonnyville,54.2668,-110.735,12.89,94,100,10.42,CA,1722042604
187,botad,22.1667,71.6667,26.72,86,100,5.38,IN,1722042751
188,qarqaraly,49.4058,75.4742,17.85,73,0,2.52,KZ,1722042752
189,villa gesell,-37.2639,-56.973,8.92,78,99,4.26,AR,1722042753
190,tazacorte,28.629,-17.9293,21.54,83,75,5.66,ES,1722042754
191,taoudenni,22.6783,-3.9836,37.64,9,4,5.16,ML,1722042756
192,quellon,-43.1167,-73.6167,7.01,84,86,8.26,CL,1722042757
193,guayaramerin,-10.8368,-65.3614,25.42,45,3,0.98,BO,1722042758
194,ribeira brava,32.65,-17.0667,24.45,85,2,1.92,PT,1722042759
195,dergachi,51.2328,48.7659,12.18,76,67,3.51,RU,1722042760
196,tolanaro,-25.0319,46.9987,17.67,79,15,1.64,MG,1722042762
197,xilin hot,43.9667,116.0333,24.79,47,0,7.42,CN,1722042763
198,taraz,42.9,71.3667,19.23,55,0,3.0,KZ,1722042516
199,miranda,3.2499,-76.2281,24.07,91,32,2.64,CO,1722042765
200,hailey,43.5196,-114.3153,26.61,25,0,5.14,US,1722042766
201,keningau,5.3378,116.1602,26.54,82,96,1.05,MY,1722042768
202,kirovskaya,46.9748,40.0402,19.31,48,3,4.72,RU,1722042769
203,taghazout,30.5426,-9.7112,21.43,79,0,1.79,MA,1722042770
204,diamantina,-18.2494,-43.6003,12.48,72,0,1.17,BR,1722042771
205,mitu,1.1983,-70.1733,22.46,96,25,0.19,CO,1722042772
206,mamuju,-2.6748,118.8885,28.93,73,4,0.57,ID,1722042773
207,ushuaia,-54.8,-68.3,0.81,93,100,6.69,AR,1722042775
208,kovdor,67.5662,30.4758,13.27,72,25,1.53,RU,1722042777
209,eenhana,-17.4667,16.3333,13.92,19,0,2.39,NA,1722042778
210,antigonish,45.6169,-61.9986,18.9,88,0,0.45,CA,1722042780
211,bom jesus,-9.0744,-44.3586,21.94,33,11,1.32,BR,1722042781
212,bridgewater,44.3835,-64.5155,14.91,89,0,1.33,CA,1722042782
213,raduzhnyy,62.0961,77.475,15.28,80,100,4.08,RU,1722042784
214,khor,47.8861,134.9464,23.72,82,100,2.89,RU,1722042785
215,omdurman,15.6445,32.4777,28.13,60,49,7.79,SD,1722042787
216,sablayan,12.8346,120.769,28.09,74,100,1.6,PH,1722042788
217,kangding,30.0513,101.9603,18.19,98,100,1.58,CN,1722042789
218,saint-philippe,-21.3585,55.7679,19.77,69,0,0.69,RE,1722042790
219,palangkaraya,-2.2,113.8333,28.23,70,57,1.55,ID,1722042792
220,usakos,-22.0,15.6,9.59,39,0,1.01,NA,1722042793
221,inhambane,-23.865,35.3833,19.66,81,12,3.37,MZ,1722042794
222,crane,31.3974,-102.3501,33.74,21,0,3.48,US,1722042795
223,rzhev,56.2624,34.3282,13.8,82,9,1.99,RU,1722042798
224,port elizabeth,-33.918,25.5701,10.73,95,0,3.25,ZA,1722042799
225,bac lieu,9.285,105.7244,27.24,85,100,3.67,VN,1722042800
226,nagqu,31.5,92.0,7.2,93,100,1.9,CN,1722042802
227,amnat charoen,15.9167,104.75,25.07,90,100,5.23,TH,1722042804
228,salekhard,66.53,66.6019,11.96,81,100,1.62,RU,1722042805
229,badger,64.8,-147.5333,15.14,84,100,0.45,US,1722042806
230,tanumah,27.1,44.1333,29.97,13,31,5.44,SA,1722042807
231,kolonia,50.9333,6.95,19.6,89,75,2.06,DE,1722042808
232,colby,39.3958,-101.0524,31.03,39,0,9.26,US,1722042751
233,jamestown,42.097,-79.2353,18.07,83,0,1.94,US,1722042569
234,hit,33.6416,42.8251,31.77,25,0,6.03,IQ,1722042812
235,teluknaga,-6.0989,106.6381,30.21,65,20,3.6,ID,1722042813
236,port blair,11.6667,92.75,28.17,86,100,9.2,IN,1722042814
237,amalapuram,16.5833,82.0167,24.89,92,100,3.59,IN,1722042815
238,westport,41.1415,-73.3579,24.75,62,100,0.89,US,1722042817
239,rio grande,-32.035,-52.0986,12.19,91,0,3.26,BR,1722042818
240,mar del plata,-38.0023,-57.5575,11.16,88,100,4.47,AR,1722042819
241,akureyri,65.6835,-18.0878,9.91,93,99,1.24,IS,1722042820
242,bell ville,-32.6259,-62.6887,14.13,50,100,2.08,AR,1722042821
243,port lincoln,-34.7333,135.8667,12.4,45,27,6.97,AU,1722042823
244,rawson,-43.3002,-65.1023,8.8,38,1,8.66,AR,1722042824
245,ain sefra,32.75,-0.5833,26.1,25,100,1.12,DZ,1722042825
246,rumuruti,0.267,36.5389,16.02,91,97,1.94,KE,1722042826
247,eureka,40.8021,-124.1637,17.89,82,36,1.34,US,1722042634
248,susangerd,31.5608,48.1831,36.21,14,5,7.71,IR,1722042829
249,caleta de carquin,-11.0925,-77.6267,16.83,81,19,4.65,PE,1722042830
250,puerto real,36.5282,-6.1901,21.81,88,0,0.0,ES,1722042831
251,port clinton,41.512,-82.9377,23.32,62,0,2.06,US,1722042832
252,waspan,14.7419,-83.9717,25.0,95,72,1.58,NI,1722042834
253,nogliki,51.8333,143.1667,22.73,63,7,6.93,RU,1722042835
254,inverell,-29.7833,151.1167,11.73,97,100,0.89,AU,1722042836
255,chahal guatemala,15.75,-89.5667,24.49,95,99,1.26,GT,1722042837
256,nadi,-17.8,177.4167,26.0,50,40,7.72,FJ,1722042638
257,kailua-kona,19.6406,-155.9956,28.98,74,40,6.69,US,1722042839
258,odda,60.0691,6.5457,15.43,97,100,0.89,NO,1722042841
259,enewetak,11.3474,162.3373,28.43,78,74,9.15,MH,1722042842
260,la'ie,21.6477,-157.9253,28.03,72,100,5.81,US,1722042843
261,pangai,-19.8,-174.35,22.8,69,11,9.62,TO,1722042844
262,al qubbah,32.7616,22.2424,20.76,83,0,5.17,LY,1722042845
263,st. john's,47.5649,-52.7093,17.31,92,100,3.58,CA,1722042847
264,chibougamau,49.9168,-74.3659,14.34,53,100,0.65,CA,1722042848
265,alofi,-19.0595,-169.9187,25.94,69,75,8.75,NU,1722042849
266,kibuye,-2.0597,29.3482,20.0,57,81,0.48,RW,1722042850
267,thompson,55.7435,-97.8558,23.0,38,3,7.56,CA,1722042852
268,kyustendil,42.2839,22.6911,17.12,66,0,2.12,BG,1722042853
269,mpulungu,-8.7623,31.1141,19.13,26,0,2.69,ZM,1722042854
270,rosolina,45.0731,12.2486,24.01,68,0,2.11,IT,1722042855
271,quelimane,-17.8786,36.8883,18.17,92,0,1.99,MZ,1722042856
272,bathsheba,13.2167,-59.5167,28.34,83,20,7.72,BB,1722042858
273,tazovsky,67.4667,78.7,10.5,90,100,2.81,RU,1722042859
274,luanda,-8.8368,13.2343,20.14,85,83,1.95,AO,1722042356
275,lokomotivnyy,53.0118,60.5684,11.01,88,100,10.54,RU,1722042861
276,choibalsan,48.0667,114.5,16.87,98,100,3.8,MN,1722042862
277,northam,51.0333,-4.2167,13.14,93,0,2.66,GB,1722042864
278,howard springs,-12.497,131.047,28.32,81,29,1.97,AU,1722042865
279,sofifi,0.7349,127.576,28.57,73,94,1.8,ID,1722042868
280,stornoway,58.2093,-6.3865,11.13,92,75,3.6,GB,1722042870
281,tataouine,32.9297,10.4518,25.71,49,0,1.67,TN,1722042871
282,lewistown,40.5992,-77.5714,21.76,86,0,0.0,US,1722042872
283,el calafate,-50.3408,-72.2768,-0.95,94,100,1.95,AR,1722042873
284,kayangel,8.0823,134.7173,28.53,81,100,9.18,PW,1722042874
285,adrar,20.5022,-10.0711,33.17,25,84,4.12,MR,1722042876
286,galveston,29.3669,-94.9669,26.77,87,20,2.57,US,1722042877
287,mahina,-17.5065,-149.489,27.87,61,40,8.23,PF,1722042879
288,geraldton,-28.7667,114.6,12.23,87,0,4.63,AU,1722042880
289,celldomolk,47.2571,17.1503,18.94,59,99,2.49,HU,1722042881
290,ardestan,33.3761,52.3694,32.34,19,0,1.39,IR,1722042883
291,bamboo flat,11.7,92.7167,27.74,86,100,8.94,IN,1722042884
292,nyurba,63.2842,118.3319,19.66,55,100,1.8,RU,1722042886
293,zahedan,29.4963,60.8629,25.58,28,28,1.92,IR,1722042888
294,kosmach,48.7509,24.3673,13.59,87,71,2.22,UA,1722042889
295,papao,-17.75,-149.55,27.82,69,46,6.01,PF,1722042890
296,sinabang,2.4803,96.3801,28.02,78,100,2.48,ID,1722042891
297,miastko,54.0028,16.9826,13.92,84,100,2.35,PL,1722042892
298,xucheng,20.35,110.1288,29.06,76,100,2.91,CN,1722042894
299,rikaze,29.25,88.8833,15.6,60,100,0.94,CN,1722042895
300,oroqen zizhiqi,50.5667,123.7167,20.1,82,100,3.3,CN,1722042896
301,plaza huincul,-38.926,-69.2086,5.08,10,0,3.58,AR,1722042897
302,kavieng,-2.5744,150.7967,27.75,80,93,3.61,PG,1722042898
303,kerikeri,-35.2268,173.9474,15.03,59,26,1.74,NZ,1722042900
304,duverge,18.3784,-71.5247,27.53,81,100,2.22,DO,1722042901
305,port-vila,-17.7338,168.3219,25.78,57,75,7.2,VU,1722042817
306,kenai,60.5544,-151.2583,18.34,64,75,12.86,US,1722042903
307,varennes-vauzelles,47.0168,3.1404,21.73,91,100,0.43,FR,1722042904
308,longboat key,27.4125,-82.659,28.9,67,75,4.12,US,1722042906
309,yelizovo,53.1873,158.3805,20.08,64,40,5.0,RU,1722042907
310,lazaro cardenas,17.9583,-102.2,29.14,74,52,4.1,MX,1722042908
311,sisimiut,66.9395,-53.6735,4.76,82,100,0.21,GL,1722042909
312,al kharijah,25.4514,30.5464,29.97,29,68,4.09,EG,1722042910
313,kourou,5.1552,-52.6478,24.03,93,100,2.47,GF,1722042912
314,sarangani,5.4033,125.4636,28.01,74,88,4.79,PH,1722042913
315,mount gambier,-37.8333,140.7667,8.14,84,100,4.65,AU,1722042914
316,pecos,31.4229,-103.4932,35.05,20,0,5.14,US,1722042915
317,igarka,67.4667,86.5833,16.9,85,100,1.96,RU,1722042916
318,danielskuil,-28.1887,23.5395,4.8,32,0,2.37,ZA,1722042918
319,malvan,16.0667,73.4667,27.27,85,100,8.91,IN,1722042919
320,shingu,33.7333,135.9833,32.17,61,100,2.63,JP,1722042920
321,zag,46.9441,99.165,17.37,57,95,0.74,MN,1722042922
322,monduli,-3.3,36.45,14.73,74,56,2.79,TZ,1722042924
323,charters towers,-20.1,146.2667,23.03,54,83,4.11,AU,1722042925
324,eslov,55.8393,13.3039,18.01,97,100,2.49,SE,1722042926
325,klaksvik,62.2266,-6.589,11.51,91,99,8.89,FO,1722042927
326,vila velha,-20.3297,-40.2925,22.97,83,0,2.57,BR,1722042928
327,polyarnyy,69.1989,33.4478,15.76,63,9,5.0,RU,1722042930
328,sinop,41.7711,34.8709,16.99,94,100,1.38,TR,1722042931
329,kavaratti,10.5669,72.642,28.01,86,100,9.21,IN,1722042932
330,cannonvale,-20.2833,148.7,23.66,70,93,2.72,AU,1722042933
331,sao francisco,-15.9486,-44.8644,23.74,54,100,2.08,BR,1722042935
332,fortaleza,-3.7227,-38.5247,26.79,78,20,5.14,BR,1722042936
333,timimoun,29.2639,0.231,34.19,16,0,4.38,DZ,1722042937
334,dakhla,23.6848,-15.958,19.52,93,6,7.12,EH,1722042938
335,fort bragg,35.139,-79.006,25.25,88,100,2.06,US,1722042939
336,benton harbor,42.1167,-86.4542,23.11,73,0,1.54,US,1722042941
337,khowy,38.5503,44.9521,22.14,61,0,1.48,IR,1722042942
338,ikem,6.779,7.7169,22.31,97,100,2.22,NG,1722042943
339,new norfolk,-42.7826,147.0587,11.07,69,100,1.67,AU,1722042944
340,balnearia,-31.0088,-62.6673,14.27,47,100,2.76,AR,1722042945
341,bay roberts,47.5999,-53.2648,17.51,93,100,0.45,CA,1722042947
342,jiexiu,37.0244,111.9125,28.25,50,0,3.28,CN,1722042948
343,leava,-14.3,-178.1667,26.23,68,87,7.5,WF,1722042949
344,camana,-16.6228,-72.7111,15.23,85,38,3.62,PE,1722042950
345,osakarovka,50.565,72.5692,16.91,65,0,3.49,KZ,1722042951
346,saint joseph,39.7686,-94.8466,28.64,71,0,3.93,US,1722042807
347,moyale,3.5167,39.0584,19.78,68,100,6.21,KE,1722042954
348,dudinka,69.4058,86.1778,16.21,84,79,3.0,RU,1722042955
349,kimbe,-5.5502,150.1429,26.96,81,100,2.43,PG,1722042956
350,tamanrasset,22.785,5.5228,24.95,19,0,1.03,DZ,1722042957
351,al ghayzah,16.2079,52.176,25.4,89,67,3.88,YE,1722042959
352,utrik,11.2278,169.8474,28.01,81,66,9.41,MH,1722042960
353,bikenibeu village,1.3673,173.1241,30.98,66,40,5.14,KI,1722042961
354,tallulah,32.4085,-91.1868,24.0,94,20,1.54,US,1722042962
355,severo-yeniseyskiy,60.3725,93.0408,22.61,60,0,0.85,RU,1722042963
356,ulsteinvik,62.3432,5.8487,13.88,91,100,1.34,NO,1722042965
357,puerto lempira,15.2667,-83.7667,26.17,90,14,3.57,HN,1722042966
358,maun,-19.9833,23.4167,15.56,16,0,0.6,BW,1722042967
359,tarawa,1.419,172.984,31.05,66,40,5.14,KI,1722042968
360,khanty-mansiysk,61.0042,69.0019,15.06,100,75,5.0,RU,1722042970
361,meget,52.415,104.0494,19.42,82,35,1.32,RU,1722042971
362,kachug,53.9606,105.8817,22.57,76,91,0.55,RU,1722042972
363,noumea,-22.2763,166.4572,23.99,99,70,5.86,NC,1722042973
364,pau,43.4167,-0.5833,20.5,88,100,2.57,FR,1722042974
365,bahia honda,22.9036,-83.1592,27.39,82,98,2.32,CU,1722042976
366,qoryooley,1.7878,44.53,23.33,88,42,4.72,SO,1722042977
367,janeng,-25.4167,25.55,10.21,50,44,2.3,BW,1722042978
368,san luis de la loma,17.2706,-100.8939,28.54,80,100,3.24,MX,1722042979
369,carbonear,47.7332,-53.2148,17.57,90,100,2.57,CA,1722042980
370,pampa del indio,-26.0647,-59.919,20.31,68,0,2.22,AR,1722042982
371,metlili chaamba,32.2667,3.6333,31.17,19,2,3.8,DZ,1722042983
372,parli vaijnath,18.85,76.5333,23.76,91,100,7.36,IN,1722042984
373,san pedro pochutla,15.7333,-96.4667,27.84,79,97,1.8,MX,1722042985
374,aswan,24.0934,32.907,31.89,23,100,5.64,EG,1722042986
375,el bauga,18.262,33.9081,27.93,68,95,6.43,SD,1722042989
376,pekan,3.4836,103.3996,26.95,84,95,3.35,MY,1722042990
377,lesina,41.8594,15.3527,24.3,42,0,1.16,IT,1722042991
378,pokhara,28.2333,83.9833,24.65,76,100,1.07,NP,1722042992
379,irymple,-34.25,142.1667,11.16,73,100,6.68,AU,1722042994
380,vadso,70.0744,29.7487,18.49,82,40,1.54,NO,1722042995
381,maintirano,-18.0667,44.0167,19.5,84,0,4.6,MG,1722042996
382,dalhart,36.0595,-102.5133,32.01,25,0,10.29,US,1722042997
383,margate,51.3813,1.3862,14.83,84,88,4.67,GB,1722042999
384,gebeit,21.0667,36.3167,28.58,54,100,4.42,SD,1722043000
385,buenos aires,-34.6132,-58.3772,12.73,75,100,4.92,AR,1722043001
386,es castell,39.8795,4.2854,24.38,94,75,1.54,ES,1722043002
387,quimili,-27.6333,-62.4167,18.53,55,3,4.15,AR,1722043003
388,yamada,39.4667,141.95,19.46,100,100,1.85,JP,1722043005
389,lawas,13.764,121.0566,28.85,74,100,0.26,PH,1722043006
390,north battleford,52.7834,-108.2847,19.11,51,63,9.28,CA,1722043007
391,ghanzi,-21.5667,21.7833,11.35,9,0,3.91,BW,1722043008
392,east grand forks,47.93,-97.0245,28.9,72,75,6.69,US,1722043009
393,dabwali,29.95,74.7333,33.16,60,100,2.12,IN,1722043011
394,muroto-misakicho,33.2833,134.15,28.22,81,99,3.41,JP,1722043012
395,touros,-5.1989,-35.4608,22.9,88,11,4.64,BR,1722043013
396,baneasa,44.0461,26.0642,20.42,73,1,2.4,RO,1722043014
397,mili,6.0815,171.735,28.58,78,94,6.42,MH,1722043016
398,natal,-5.795,-35.2094,23.36,83,40,1.54,BR,1722043017
399,sale,34.0389,-6.8166,21.38,88,75,3.09,MA,1722043018
400,mata-utu,-13.2816,-176.1745,26.97,79,70,5.85,WF,1722043020
401,ibarreta,-25.2144,-59.8585,22.89,51,1,1.0,AR,1722043022
402,nekrasovskoye,57.6766,40.3657,9.94,100,0,1.0,RU,1722043023
403,pachperwa,27.5167,82.65,30.08,75,100,2.15,IN,1722043024
404,moires,35.0532,24.8744,26.79,47,0,2.26,GR,1722043025
405,minab,27.1467,57.0801,33.96,39,60,1.98,IR,1722043026
406,webster city,42.4694,-93.816,26.73,90,0,4.04,US,1722043028
407,princeville,45.7668,-61.2985,18.62,88,26,1.79,CA,1722043029
408,palikir - national government center,6.9248,158.1611,31.47,70,100,2.57,FM,1722043031
409,east london,-33.0153,27.9116,15.67,70,6,2.26,ZA,1722043033
410,toliara,-23.35,43.6667,17.0,81,0,3.7,MG,1722043034
411,ustyuzhna,58.8394,36.4321,14.78,73,43,2.13,RU,1722043035
412,waliso,8.5333,37.9833,14.62,99,100,2.11,ET,1722043036
413,shendi,16.6915,33.4341,27.5,60,100,5.4,SD,1722043037
414,tokar,18.4254,37.729,30.78,51,100,11.61,SD,1722043040
415,west bay,19.3667,-81.4167,30.04,81,20,5.14,KY,1722043041
416,sangmelima,2.9333,11.9833,19.62,98,100,2.02,CM,1722043042
417,levuka,50.1834,-105.4011,27.85,20,20,5.66,CA,1722043043
418,verkhnevilyuysk,63.4453,120.3167,19.98,51,30,2.41,RU,1722043045
419,ciudad lazaro cardenas,17.9583,-102.2,29.14,74,52,4.1,MX,1722042908
420,adelaide,-34.9333,138.6,12.87,64,75,7.72,AU,1722042516
421,alipur,29.3846,70.9116,37.06,39,100,5.72,PK,1722043048
422,san sebastian de la gomera,28.0916,-17.1133,24.2,73,0,2.57,ES,1722043051
423,salinas,36.6777,-121.6555,23.88,76,75,5.14,US,1722043049
424,dunay,42.8803,132.3375,19.62,95,100,7.26,RU,1722043053
425,khark,29.2614,50.3306,34.01,70,0,4.12,IR,1722043054
426,lionel town,17.8101,-77.2406,27.17,73,65,5.02,JM,1722043055
427,tongliao,43.6125,122.2653,27.55,72,27,5.42,CN,1722043056
428,yilan,24.757,121.753,29.07,91,100,2.64,TW,1722043058
429,sandnessjoen,66.0217,12.6316,19.29,93,100,5.56,NO,1722043059
430,bela vista,-22.1089,-56.5211,23.92,37,74,1.75,BR,1722043060
431,siwa oasis,29.2041,25.5195,28.8,52,0,3.32,EG,1722043061
432,richards bay,-28.783,32.0377,15.63,77,0,2.23,ZA,1722043063
433,santa isabel,-23.3156,-46.2214,16.84,59,100,0.33,BR,1722043064
434,ocara,-4.4908,-38.5967,21.27,97,6,1.41,BR,1722043065
435,gaiman,-43.2897,-65.4929,8.83,35,7,9.11,AR,1722043066
436,tabas,33.5959,56.9244,32.32,22,0,0.96,IR,1722043067
437,kholmskiy,44.8469,38.385,19.92,89,97,2.13,RU,1722043069
438,mathba,22.2855,89.9629,28.78,86,100,2.39,BD,1722043070
439,leshan,29.5623,103.7639,25.8,91,100,0.78,CN,1722043071
440,vrangel',42.7297,133.0839,19.7,95,100,6.04,RU,1722043072
441,shiyan,32.6475,110.7781,29.56,72,44,1.72,CN,1722043074
442,al faw,29.9776,48.4741,33.0,26,0,5.95,IQ,1722043076
443,leeton,-34.5667,146.4,14.38,57,0,2.58,AU,1722043077
444,koidu,8.4167,-10.8333,22.06,100,100,1.01,SL,1722043078
445,mbabane,-26.3167,31.1333,9.85,42,0,2.29,SZ,1722043079
446,sodankyla,67.4167,26.6,14.99,97,38,1.87,FI,1722043081
447,pangody,65.85,74.4859,11.42,80,100,0.54,RU,1722043082
448,arvika,59.6553,12.5852,16.34,99,100,2.27,SE,1722043083
449,hailar,49.2,119.7,16.19,96,100,4.38,CN,1722043084
450,portage la prairie,49.9728,-98.2926,22.84,51,100,1.23,CA,1722043086
451,tago,9.0211,126.2317,24.96,94,100,2.5,PH,1722043087
452,ouro sogui,15.6,-13.3167,32.67,53,99,6.0,SN,1722043088
453,bardai,11.65,7.2333,21.75,92,100,3.8,NG,1722043089
454,cho dok,10.7,105.1167,26.25,88,100,4.4,VN,1722043090
455,chonchi,-42.6128,-73.8092,7.56,88,100,5.35,CL,1722043092
456,sinjar,36.3209,41.8754,28.02,44,0,4.39,IQ,1722043093
457,saint-louis,16.3333,-15.0,28.88,65,9,5.8,SN,1722043094
458,lihue,21.9789,-159.3672,27.77,67,75,7.72,US,1722043095
459,sarkisla,39.3519,36.4098,17.13,71,0,2.24,TR,1722043096
460,dilling,12.05,29.65,24.5,79,100,4.66,SD,1722043098
461,launceston,-41.45,147.1667,9.63,93,100,6.69,AU,1722043099
462,djambala,-2.5447,14.7533,20.24,74,12,2.89,CG,1722043100
463,komsomol'skiy,43.9783,46.6985,22.56,65,100,3.06,RU,1722043101
464,tralee,52.2704,-9.7026,12.13,96,100,2.36,IE,1722043102
465,rundu,-17.9333,19.7667,13.95,17,0,1.78,NA,1722043104
466,codrington,-38.2667,141.9667,8.28,80,100,4.53,AU,1722043105
467,petropavlovsk-kamchatsky,53.0452,158.6483,18.33,68,20,6.0,RU,1722043106
468,nantucket,41.2835,-70.0995,21.66,67,100,3.77,US,1722043107
469,phulbani,20.4667,84.2333,23.68,98,100,2.12,IN,1722043108
470,fiambala,-27.6871,-67.6149,10.16,24,0,0.67,AR,1722043110
471,necochea,-38.5473,-58.7368,8.88,73,71,4.09,AR,1722043111
472,maceio,-9.6658,-35.7353,22.69,83,40,1.03,BR,1722043113
473,nemuro,43.3236,145.575,15.01,86,3,1.1,JP,1722043115
474,bairnsdale,-37.8333,147.6167,15.59,55,64,1.79,AU,1722043116
475,svyetlahorsk,52.6329,29.7389,17.56,78,100,1.72,BY,1722043117
476,nefta,33.8731,7.8777,30.14,49,0,8.35,TN,1722043118
477,gremda,34.75,10.7833,27.11,74,0,2.06,TN,1722043119
478,keflavik,64.0049,-22.5624,10.95,100,100,6.69,IS,1722043121
479,kingston,17.997,-76.7936,26.76,77,20,2.45,JM,1722043122
480,ola,59.5833,151.2833,16.11,45,0,1.04,RU,1722043123
481,sanctuary point,-35.1114,150.629,13.51,42,40,2.89,AU,1722043124
482,loboc,9.6383,124.0348,29.15,73,98,1.6,PH,1722043125
483,babayevo,59.3936,35.9371,15.65,77,84,1.51,RU,1722043127
484,sai buri,6.7013,101.6168,28.87,85,100,1.19,TH,1722043128
485,vanino,49.0869,140.2543,24.14,61,100,2.22,RU,1722043129
486,san julian,21.0167,-102.1667,14.85,95,100,2.34,MX,1722043130
487,benguela,-12.5763,13.4055,18.57,91,0,1.61,AO,1722043132
488,maslyanino,54.3436,84.2111,23.67,76,9,1.7,RU,1722043133
489,chernyshevskiy,63.0128,112.4714,19.35,77,100,3.4,RU,1722043134
490,lata,40.1629,-8.3327,17.82,94,100,1.31,PT,1722043135
491,puerto colombia,10.9878,-74.9547,28.05,82,93,3.89,CO,1722043136
492,portel,-1.9356,-50.8211,25.32,62,6,1.27,BR,1722043138
493,sao jose da coroa grande,-8.8978,-35.1478,24.06,81,54,4.95,BR,1722043139
494,kanniyakumari,8.0833,77.5667,26.58,82,100,6.87,IN,1722043140
495,gadzhiyevo,69.2551,33.3362,16.06,60,8,5.04,RU,1722043141
496,tanjung selor,2.8372,117.3642,27.68,86,100,1.66,ID,1722043142
497,hirara,24.8,125.2833,31.15,79,75,10.8,JP,1722043144
498,geoagiu,45.9167,23.2,15.23,70,0,0.22,RO,1722043145
499,kathu,7.9178,98.3332,30.94,84,100,0.94,TH,1722043146
500,malango,-2.9627,119.9001,23.74,84,35,0.85,ID,1722043147
501,santa terezinha,-29.9002,-50.0904,15.8,92,48,3.22,BR,1722043148
502,khujner,23.7833,76.6,25.3,90,100,4.92,IN,1722043150
503,xichang,27.8964,102.2634,22.22,89,88,0.43,CN,1722043151
504,trincomalee,8.5711,81.2335,28.25,77,98,8.87,LK,1722043153
505,tual,-5.6667,132.75,25.43,88,16,5.56,ID,1722043155
506,abepura,-2.6333,140.5833,25.45,94,40,2.06,ID,1722043156
507,del rio,29.3627,-100.8968,34.22,41,0,8.23,US,1722043157
508,lexington,37.9887,-84.4777,26.0,50,0,3.6,US,1722042917
509,timmins,48.4669,-81.3331,18.9,68,100,3.09,CA,1722043159
510,pak phanang,8.3511,100.202,29.01,75,100,2.22,TH,1722043161
511,lorengau,-2.0226,147.2712,28.17,78,59,3.28,PG,1722043162
512,hanceville,34.0607,-86.7675,27.34,87,14,2.53,US,1722043163
513,jijiga,9.35,42.8,17.57,88,100,7.43,ET,1722043164
514,bereznik,62.8551,42.7072,11.16,64,89,1.66,RU,1722043166
515,kish,26.5578,54.0194,32.15,89,11,4.12,IR,1722043167
516,soio,-6.1349,12.3689,20.0,86,5,2.24,AO,1722043168
517,linxia chengguanzhen,35.6003,103.2064,19.25,58,41,0.37,CN,1722043169
518,wajir,1.7471,40.0573,23.89,65,65,7.11,KE,1722043172
519,khandyga,62.6667,135.6,17.91,77,95,3.81,RU,1722043173
520,alliance,40.9153,-81.1059,20.86,74,0,2.97,US,1722043174
521,koysinceq,36.0821,44.6278,28.76,25,0,1.0,IQ,1722043175
522,ulladulla,-35.35,150.4667,16.98,39,64,3.08,AU,1722043177
523,konarka,19.9,86.1167,27.22,85,100,4.28,IN,1722043178
524,wuchang,44.9143,127.15,24.38,94,100,5.03,CN,1722043179
525,mega,4.05,38.3,15.62,78,99,7.93,ET,1722043180
526,aitape,-3.1374,142.3475,24.55,93,100,2.84,PG,1722043181
527,torghay,49.6339,63.4981,18.5,55,69,3.62,KZ,1722043183
528,kununurra,-15.7667,128.7333,26.99,36,100,5.14,AU,1722043184
529,hinton,53.4001,-117.5857,15.59,52,100,4.13,CA,1722043185
530,kiunga,-6.1219,141.2906,25.23,94,99,1.52,PG,1722043186
531,hasaki,35.7333,140.8333,32.22,78,96,2.15,JP,1722043187
532,kirensk,57.7853,108.1119,25.06,73,7,2.08,RU,1722043189
533,merizo village,13.2658,144.6691,31.31,85,72,3.81,GU,1722043190
534,kalymnos,36.95,26.9833,26.74,61,0,9.26,GR,1722043191
535,jefferson city,38.5767,-92.1735,27.95,74,0,2.57,US,1722043192
536,mezhdurechenskiy,59.6,65.9333,13.74,98,100,5.12,RU,1722043193
537,abbeville,50.1,1.8333,16.39,83,99,1.48,FR,1722043195
538,saudarkrokur,65.7461,-19.6394,8.77,94,100,0.39,IS,1722043196
539,nha trang,12.25,109.1833,30.0,68,100,1.6,VN,1722043197
540,hanwella ihala,6.9012,80.0852,25.01,94,63,1.37,LK,1722043198
541,buka,40.8108,69.1986,24.43,33,0,1.74,UZ,1722043200
542,lerwick,60.1545,-1.1494,12.0,87,100,4.53,GB,1722043201
543,veinticinco de mayo,-35.4323,-60.1727,10.97,70,74,1.88,AR,1722043202
544,colares,38.7992,-9.4469,20.74,88,98,6.91,PT,1722043203
545,bubaque,11.2833,-15.8333,26.8,84,100,6.71,GW,1722043204
546,mutuali,-14.8706,37.0044,14.15,58,0,1.09,MZ,1722043206
547,zapala,-38.8992,-70.0544,1.9,43,0,4.52,AR,1722043207
548,praia,14.9215,-23.5087,26.3,78,40,1.54,CV,1722043208
549,thaton,16.9206,97.3714,25.07,94,100,3.11,MM,1722043209
550,roding,49.1964,12.5186,19.45,94,12,1.26,DE,1722043210
551,new plymouth,-39.0667,174.0833,12.95,100,100,3.1,NZ,1722042639
552,missoula,47.0166,-113.8009,23.8,14,1,5.24,US,1722042700
553,bodo,67.28,14.405,18.02,72,0,2.06,NO,1722043214
554,byron bay,-28.65,153.6167,23.73,55,35,5.04,AU,1722043215
555,madalena,41.2162,-8.3345,20.86,89,88,1.19,PT,1722043216
556,roccella ionica,38.322,16.4009,25.65,64,0,3.29,IT,1722043218
557,waddan,29.1614,16.139,27.97,49,0,5.91,LY,1722043219
558,machico,32.7,-16.7667,24.45,79,20,7.2,PT,1722043220
559,neiafu,-18.65,-173.9833,25.38,69,40,5.66,TO,1722043221
560,baruun-urt,46.6806,113.2792,19.38,75,89,4.52,MN,1722043222
561,malinyi,-8.9333,36.1333,15.25,41,1,0.74,TZ,1722043224
562,xinyuan,37.3,99.0,11.54,77,100,0.97,CN,1722043225
563,weno,7.4515,151.8468,28.97,84,100,3.09,FM,1722043226
564,mermoz boabab,14.7065,-17.4758,27.31,83,100,3.77,SN,1722043227
565,de queen,34.0379,-94.3413,26.07,78,0,2.57,US,1722043228
566,dickinson,29.4608,-95.0513,26.69,89,100,1.54,US,1722043230
567,dolisie,-4.1997,12.6739,18.13,95,69,1.54,CG,1722043231
568,kamaishi,39.2667,141.8833,20.39,100,100,2.71,JP,1722043046
569,suriapet,17.15,79.6167,25.22,84,100,6.2,IN,1722043233
570,avanigadda,16.0215,80.9181,28.86,78,100,4.13,IN,1722043234
571,ouro preto do oeste,-10.7481,-62.2158,24.49,43,0,1.06,BR,1722043236
572,notodden,59.5594,9.2585,14.86,79,100,0.95,NO,1722043237
573,holualoa,19.6228,-155.9522,26.91,74,40,6.69,US,1722043238
574,mount pearl,47.5166,-52.7813,16.85,93,100,0.89,CA,1722042980
575,okotoks,50.7289,-113.9828,21.82,24,100,4.18,CA,1722042833
576,praia da vitoria,38.7333,-27.0667,23.75,78,20,4.34,PT,1722043241
577,mana,5.6592,-53.7767,25.92,86,92,3.03,GF,1722043243
578,de aar,-30.6497,24.0123,5.69,56,0,2.31,ZA,1722043244
579,chillicothe,39.3331,-82.9824,21.17,52,0,2.06,US,1722042963
580,santo estevao,-12.4303,-39.2514,18.18,96,38,1.36,BR,1722043246
581,harstad,68.799,16.5293,16.8,80,89,1.62,NO,1722043247
582,ebon,4.582,168.6964,28.36,79,100,6.64,MH,1722043248
583,cidreira,-30.1811,-50.2056,16.31,89,32,3.53,BR,1722043250
584,taroa,8.7058,171.2275,28.41,81,95,8.15,MH,1722043251
585,neryungri,56.6709,124.6491,25.34,52,0,0.98,RU,1722043252
